<?xml version='1.0' encoding='utf-8'?>
<kml xmlns="http://www.opengis.net/kml/2.2">
  <Document>
    <name>Zone Google 30-04-2026</name>
    <Placemark>
      <name>1. SCUOLA PRIMARIA "SANTA GIOVANNA D'ARCO"</name>
      <description>&lt;b&gt;SCUOLA PRIMARIA "SANTA GIOVANNA D'ARCO"&lt;/b&gt;&lt;br&gt;Indirizzo: VIA DEL FANTE 231, 31029 VITTORIO VENETO (TREVISO)&lt;br&gt;Zona: 3206</description>
      <Point>
        <coordinates>12.29359709699365,45.97358583056165,0</coordinates>
      </Point>
    </Placemark>
    <Placemark>
      <name>2. Duca D'Aosta San Martino Di Lupari</name>
      <description>&lt;b&gt;Duca D'Aosta San Martino Di Lupari&lt;/b&gt;&lt;br&gt;Indirizzo: Via Julia, 35018 San Martino Di Lupari (PADOVA)&lt;br&gt;Zona: 3111</description>
      <Point>
        <coordinates>11.8603388,45.6471714,0</coordinates>
      </Point>
    </Placemark>
    <Placemark>
      <name>3. OSPEDALETTO EUG. "G.B.FERRARI"</name>
      <description>&lt;b&gt;OSPEDALETTO EUG. "G.B.FERRARI"&lt;/b&gt;&lt;br&gt;Indirizzo: VIA G.B. FERRARI 5, 35045 OSPEDALETTO EUGANEO (PADOVA)&lt;br&gt;Zona: 3110</description>
      <Point>
        <coordinates>11.61347554542582,45.22349014302539,0</coordinates>
      </Point>
    </Placemark>
    <Placemark>
      <name>4. F.FABBRI - SANTA MARIA</name>
      <description>&lt;b&gt;F.FABBRI - SANTA MARIA&lt;/b&gt;&lt;br&gt;Indirizzo: PIAZZA DONATORI DI SANGUE 1, 31020 SAN PIETRO DI FELETTO (TREVISO)&lt;br&gt;Zona: 3206</description>
      <Point>
        <coordinates>12.23460724970705,45.8977212304539,0</coordinates>
      </Point>
    </Placemark>
    <Placemark>
      <name>5. O.DE GASPARI FALZE' DI P.</name>
      <description>&lt;b&gt;O.DE GASPARI FALZE' DI P.&lt;/b&gt;&lt;br&gt;Indirizzo: VIA DONATORI DEL SANGUE 4&lt;br&gt;Zona: 3206</description>
      <Point>
        <coordinates>12.17298733945312,45.86008859765876,0</coordinates>
      </Point>
    </Placemark>
  </Document>
</kml>