<?xml version='1.0' encoding='utf-8'?>
<kml xmlns="http://www.opengis.net/kml/2.2">
  <Document>
    <name>Zone Google 21-04-2026</name>
    <Placemark>
      <name>1. FARRA</name>
      <description>&lt;b&gt;FARRA&lt;/b&gt;&lt;br&gt;Indirizzo: VIA BOSCARIZ 1, 32032 FELTRE (BELLUNO)&lt;br&gt;Zona: 3123</description>
      <Point>
        <coordinates>11.9026738,46.0222931,0</coordinates>
      </Point>
    </Placemark>
    <Placemark>
      <name>2. PRIMARIA "MARCONI" BOARA P.</name>
      <description>&lt;b&gt;PRIMARIA "MARCONI" BOARA P.&lt;/b&gt;&lt;br&gt;Indirizzo: VIA ENRICO FERMI 16, 35040 BOARA PISANI (PADOVA)&lt;br&gt;Zona: 3106</description>
      <Point>
        <coordinates>11.7849146,45.1088759,0</coordinates>
      </Point>
    </Placemark>
    <Placemark>
      <name>3. SCUOLA PRIMARIA PARITARIA "FILIPPIN"</name>
      <description>&lt;b&gt;SCUOLA PRIMARIA PARITARIA "FILIPPIN"&lt;/b&gt;&lt;br&gt;Indirizzo: VIA S.GIACOMO 4, 31017 PIEVE DEL GRAPPA (TREVISO)&lt;br&gt;Zona: 3207</description>
      <Point>
        <coordinates>11.8610041,45.8299919,0</coordinates>
      </Point>
    </Placemark>
    <Placemark>
      <name>4. SC. ELEM. STATALE DI SOVRAMONTE</name>
      <description>&lt;b&gt;SC. ELEM. STATALE DI SOVRAMONTE&lt;/b&gt;&lt;br&gt;Indirizzo: PIANA DI SORRIVA 332, 32030 SOVRAMONTE (BELLUNO)&lt;br&gt;Zona: 3123</description>
      <Point>
        <coordinates>11.7762608155279,46.0555732641349,0</coordinates>
      </Point>
    </Placemark>
    <Placemark>
      <name>5. LAMPERTICO</name>
      <description>&lt;b&gt;LAMPERTICO&lt;/b&gt;&lt;br&gt;Indirizzo: VIA DANTE 7, 36030 COSTABISSARA (VICENZA)&lt;br&gt;Zona: 3107</description>
      <Point>
        <coordinates>11.4892955,45.578573,0</coordinates>
      </Point>
    </Placemark>
    <Placemark>
      <name>6. R.Pezzani - Istrana Cap.</name>
      <description>&lt;b&gt;R.Pezzani - Istrana Cap.&lt;/b&gt;&lt;br&gt;Indirizzo: Via Bertilla Boscardin, 1, 31036 Istrana (TV)&lt;br&gt;Zona: 3207</description>
      <Point>
        <coordinates>12.1050772,45.6773652,0</coordinates>
      </Point>
    </Placemark>
    <Placemark>
      <name>7. "S.MARIA DELLA PIEVE"</name>
      <description>&lt;b&gt;"S.MARIA DELLA PIEVE"&lt;/b&gt;&lt;br&gt;Indirizzo: BORGO PIEVE 80, 31033 CASTELFRANCO VENETO (TREVISO)&lt;br&gt;Zona: 3207</description>
      <Point>
        <coordinates>11.9305332,45.6679725,0</coordinates>
      </Point>
    </Placemark>
    <Placemark>
      <name>8. Scuola Primaria Agosti</name>
      <description>&lt;b&gt;Scuola Primaria Agosti&lt;/b&gt;&lt;br&gt;Indirizzo: Piazza S.Giovanni Bosco,12, 32100 Belluno (BL)&lt;br&gt;Zona: 3202</description>
      <Point>
        <coordinates>12.224318,46.145023,0</coordinates>
      </Point>
    </Placemark>
    <Placemark>
      <name>9. G. Zanella Loc. Corte</name>
      <description>&lt;b&gt;G. Zanella Loc. Corte&lt;/b&gt;&lt;br&gt;Indirizzo: Piazza Monumento, 23, 35028 Piove Di Sacco (PD)&lt;br&gt;Zona: 3106</description>
      <Point>
        <coordinates>12.0742452,45.3095989,0</coordinates>
      </Point>
    </Placemark>
    <Placemark>
      <name>10. Lugo Di Vicenza - Capoluogo</name>
      <description>&lt;b&gt;Lugo Di Vicenza - Capoluogo&lt;/b&gt;&lt;br&gt;Indirizzo: Via Matteotti, 26, 36030 Lugo Di Vicenza (VI)&lt;br&gt;Zona: 3107</description>
      <Point>
        <coordinates>11.5275499,45.7473376,0</coordinates>
      </Point>
    </Placemark>
    <Placemark>
      <name>11. FARA VICENTINO - CAP.</name>
      <description>&lt;b&gt;FARA VICENTINO - CAP.&lt;/b&gt;&lt;br&gt;Indirizzo: VIA MARCONI 31, 36030 FARA VICENTINO (VICENZA)&lt;br&gt;Zona: 3107</description>
      <Point>
        <coordinates>11.5494574,45.7389035,0</coordinates>
      </Point>
    </Placemark>
    <Placemark>
      <name>12. Scuola Primaria Monsignor Girardi</name>
      <description>&lt;b&gt;Scuola Primaria Monsignor Girardi&lt;/b&gt;&lt;br&gt;Indirizzo: Via Marco Poli, 2, 36046 Lusiana Conco (VI)&lt;br&gt;Zona: 3107</description>
      <Point>
        <coordinates>11.6129678,45.7996042,0</coordinates>
      </Point>
    </Placemark>
    <Placemark>
      <name>13. Scuola Primaria Pio Xii</name>
      <description>&lt;b&gt;Scuola Primaria Pio Xii&lt;/b&gt;&lt;br&gt;Indirizzo: Via Sette Comuni, 16, 36046 Lusiana Conco (VI)&lt;br&gt;Zona: 3107</description>
      <Point>
        <coordinates>11.5756333,45.7856519,0</coordinates>
      </Point>
    </Placemark>
    <Placemark>
      <name>14. "RINO SORIO" MUSSOI</name>
      <description>&lt;b&gt;"RINO SORIO" MUSSOI&lt;/b&gt;&lt;br&gt;Indirizzo: VIA FRATELLI ROSSELLI, 32100 BELLUNO (BELLUNO)&lt;br&gt;Zona: 3202</description>
      <Point>
        <coordinates>12.2013158,46.1440083,0</coordinates>
      </Point>
    </Placemark>
    <Placemark>
      <name>15. "SEGATO" CHIESURAZZA</name>
      <description>&lt;b&gt;"SEGATO" CHIESURAZZA&lt;/b&gt;&lt;br&gt;Indirizzo: VIA AGORDO 578, 32100 BELLUNO (BELLUNO)&lt;br&gt;Zona: 3202</description>
      <Point>
        <coordinates>12.1907792,46.1404495,0</coordinates>
      </Point>
    </Placemark>
    <Placemark>
      <name>16. Scuola Primaria G. Zanella</name>
      <description>&lt;b&gt;Scuola Primaria G. Zanella&lt;/b&gt;&lt;br&gt;Indirizzo: Via Rossini, 2/4, 36010 Monticello Conte Otto (VI)&lt;br&gt;Zona: 3107</description>
      <Point>
        <coordinates>11.5708813,45.6037003,0</coordinates>
      </Point>
    </Placemark>
    <Placemark>
      <name>17. Guglielmo Marconi</name>
      <description>&lt;b&gt;Guglielmo Marconi&lt;/b&gt;&lt;br&gt;Indirizzo: Via Don Martino Durighello, 7, 30010 Campolongo Maggiore (VE)&lt;br&gt;Zona: 3106</description>
      <Point>
        <coordinates>11.97958568514077,45.39755345129717,0</coordinates>
      </Point>
    </Placemark>
    <Placemark>
      <name>18. San Pio X</name>
      <description>&lt;b&gt;San Pio X&lt;/b&gt;&lt;br&gt;Indirizzo: Via Casolo, 31, 30010 Campolongo Maggiore (VE)&lt;br&gt;Zona: 3106</description>
      <Point>
        <coordinates>12.0450375,45.3307823,0</coordinates>
      </Point>
    </Placemark>
    <Placemark>
      <name>20. Gianni Rodari - Barcon</name>
      <description>&lt;b&gt;Gianni Rodari - Barcon&lt;/b&gt;&lt;br&gt;Indirizzo: Via Pola, 19, 31050 Vedelago (TV)&lt;br&gt;Zona: 3207</description>
      <Point>
        <coordinates>12.004646,45.7211921,0</coordinates>
      </Point>
    </Placemark>
    <Placemark>
      <name>21. Scuola Primaria Parificata Paritaria Istituto Canossiano</name>
      <description>&lt;b&gt;Scuola Primaria Parificata Paritaria Istituto Canossiano&lt;/b&gt;&lt;br&gt;Indirizzo: Viale Montegrappa, 1, 32032 Feltre (BL)&lt;br&gt;Zona: 3123</description>
      <Point>
        <coordinates>11.9048061,46.0204785,0</coordinates>
      </Point>
    </Placemark>
    <Placemark>
      <name>22. Francesco Petrarca</name>
      <description>&lt;b&gt;Francesco Petrarca&lt;/b&gt;&lt;br&gt;Indirizzo: Via Roma, 36, 35040 Sant'Elena (PD)&lt;br&gt;Zona: 3106</description>
      <Point>
        <coordinates>11.7122658,45.1857746,0</coordinates>
      </Point>
    </Placemark>
    <Placemark>
      <name>23. A.Gabelli Belluno</name>
      <description>&lt;b&gt;A.Gabelli Belluno&lt;/b&gt;&lt;br&gt;Indirizzo: Piazzale Cesare Battisti, 32100 Belluno (BL)&lt;br&gt;Zona: 3202</description>
      <Point>
        <coordinates>12.21280275292396,46.14158552214177,0</coordinates>
      </Point>
    </Placemark>
    <Placemark>
      <name>24. MARGHERITA SARTO SANSON - CAP.</name>
      <description>&lt;b&gt;MARGHERITA SARTO SANSON - CAP.&lt;/b&gt;&lt;br&gt;Indirizzo: VIA MERRY DEL VAL 25, 31039 RIESE PIO X (TREVISO)&lt;br&gt;Zona: 3207</description>
      <Point>
        <coordinates>11.9194384,45.7303283,0</coordinates>
      </Point>
    </Placemark>
    <Placemark>
      <name>25. MADONNINA DEL GRAPPA- SPINEDA</name>
      <description>&lt;b&gt;MADONNINA DEL GRAPPA- SPINEDA&lt;/b&gt;&lt;br&gt;Indirizzo: VIA CENDROLE 68, 31039 RIESE PIO X (TREVISO)&lt;br&gt;Zona: 3207</description>
      <Point>
        <coordinates>11.8836609,45.7499828,0</coordinates>
      </Point>
    </Placemark>
    <Placemark>
      <name>26. Don Bosco - Valla</name>
      <description>&lt;b&gt;Don Bosco - Valla&lt;/b&gt;&lt;br&gt;Indirizzo: Via Enrico Toti 8, 31039 Riese Pio X (TV)&lt;br&gt;Zona: 3207</description>
      <Point>
        <coordinates>11.9300784,45.7072531,0</coordinates>
      </Point>
    </Placemark>
    <Placemark>
      <name>27. A.C. Pertile</name>
      <description>&lt;b&gt;A.C. Pertile&lt;/b&gt;&lt;br&gt;Indirizzo: Via N. Dalle Laste,2, 36063 Marostica (VI)&lt;br&gt;Zona: 3107</description>
      <Point>
        <coordinates>11.6597885,45.7473711,0</coordinates>
      </Point>
    </Placemark>
    <Placemark>
      <name>28. SCUOLA PRIMARIA SCHIAVON</name>
      <description>&lt;b&gt;SCUOLA PRIMARIA SCHIAVON&lt;/b&gt;&lt;br&gt;Indirizzo: VIA S. TERESA 5, 36060 SCHIAVON (VICENZA)&lt;br&gt;Zona: 3107</description>
      <Point>
        <coordinates>11.6448404,45.6925971,0</coordinates>
      </Point>
    </Placemark>
    <Placemark>
      <name>29. O. GUGELMO</name>
      <description>&lt;b&gt;O. GUGELMO&lt;/b&gt;&lt;br&gt;Indirizzo: VIA PEROZZI 11, 36063 MAROSTICA (VICENZA)&lt;br&gt;Zona: 3107</description>
      <Point>
        <coordinates>11.6054128,45.7613048,0</coordinates>
      </Point>
    </Placemark>
    <Placemark>
      <name>30. SAN GIOVANNI BOSCO</name>
      <description>&lt;b&gt;SAN GIOVANNI BOSCO&lt;/b&gt;&lt;br&gt;Indirizzo: VIA ROMA 2, 36060 PIANEZZE (VICENZA)&lt;br&gt;Zona: 3107</description>
      <Point>
        <coordinates>11.62538913117174,45.73888804398013,0</coordinates>
      </Point>
    </Placemark>
    <Placemark>
      <name>31. Fondazione Santa Capitanio</name>
      <description>&lt;b&gt;Fondazione Santa Capitanio&lt;/b&gt;&lt;br&gt;Indirizzo: Via Castello,24, 35028 Piove Di Sacco (PD)&lt;br&gt;Zona: 3106</description>
      <Point>
        <coordinates>12.0328005,45.2979011,0</coordinates>
      </Point>
    </Placemark>
    <Placemark>
      <name>32. SC. ELEM. J.FERRAZZI</name>
      <description>&lt;b&gt;SC. ELEM. J.FERRAZZI&lt;/b&gt;&lt;br&gt;Indirizzo: VIA B.MONTAGNA 7, 36050 CARTIGLIANO (VICENZA)&lt;br&gt;Zona: 3107</description>
      <Point>
        <coordinates>11.6940642,45.7130543,0</coordinates>
      </Point>
    </Placemark>
    <Placemark>
      <name>33. ISTITUTO SCOLASTICO "MARIA AUSILIATRICE"</name>
      <description>&lt;b&gt;ISTITUTO SCOLASTICO "MARIA AUSILIATRICE"&lt;/b&gt;&lt;br&gt;Indirizzo: VIA RISORGIMENTO 113, 31044 MONTEBELLUNA (TREVISO)&lt;br&gt;Zona: 3123</description>
      <Point>
        <coordinates>12.05885922631987,45.77225911543582,0</coordinates>
      </Point>
    </Placemark>
    <Placemark>
      <name>34. Istituto Canossiano</name>
      <description>&lt;b&gt;Istituto Canossiano&lt;/b&gt;&lt;br&gt;Indirizzo: Piazza Cesare Battisti, 27 -Entrare Dal Cancello Di Via Verdi, 35026 Conselve (PD)&lt;br&gt;Zona: 3106</description>
      <Point>
        <coordinates>11.8774862,45.2291757,0</coordinates>
      </Point>
    </Placemark>
    <Placemark>
      <name>35. MALO - SAN TOMIO</name>
      <description>&lt;b&gt;MALO - SAN TOMIO&lt;/b&gt;&lt;br&gt;Indirizzo: VIA S. TOMMASO 15, 36034 MALO (VICENZA)&lt;br&gt;Zona: 3107</description>
      <Point>
        <coordinates>11.4098526,45.6594164,0</coordinates>
      </Point>
    </Placemark>
    <Placemark>
      <name>36. ALDO FANTINA - POSSAGNO</name>
      <description>&lt;b&gt;ALDO FANTINA - POSSAGNO&lt;/b&gt;&lt;br&gt;Indirizzo: VIA STRADONE DEL TEMPIO N. 21, 31054 POSSAGNO (TREVISO)&lt;br&gt;Zona: 3207</description>
      <Point>
        <coordinates>11.8799611,45.8561165,0</coordinates>
      </Point>
    </Placemark>
    <Placemark>
      <name>37. M.FILIPPIN FERRARESE - PADERNO</name>
      <description>&lt;b&gt;M.FILIPPIN FERRARESE - PADERNO&lt;/b&gt;&lt;br&gt;Indirizzo: VIA ROMA N. 5, 31017 PIEVE DEL GRAPPA (TREVISO)&lt;br&gt;Zona: 3207</description>
      <Point>
        <coordinates>11.8562764,45.8273409,0</coordinates>
      </Point>
    </Placemark>
    <Placemark>
      <name>38. Francesco Sartor - Cavaso Del Tomba</name>
      <description>&lt;b&gt;Francesco Sartor - Cavaso Del Tomba&lt;/b&gt;&lt;br&gt;Indirizzo: Via Stradone Del Tempio N°21, 31034 Cavaso Del Tomba (TV)&lt;br&gt;Zona: 3207</description>
      <Point>
        <coordinates>11.9126347,45.8656383,0</coordinates>
      </Point>
    </Placemark>
    <Placemark>
      <name>39. General Giardino ( Semonzo)</name>
      <description>&lt;b&gt;General Giardino ( Semonzo)&lt;/b&gt;&lt;br&gt;Indirizzo: Via Martiri Del Grappa N°24, 31030 Borso Del Grappa (TV)&lt;br&gt;Zona: 3207</description>
      <Point>
        <coordinates>11.79157081480377,45.76563261966323,0</coordinates>
      </Point>
    </Placemark>
    <Placemark>
      <name>40. MONTE GRAPPA - BORSO DEL GRAPPA</name>
      <description>&lt;b&gt;MONTE GRAPPA - BORSO DEL GRAPPA&lt;/b&gt;&lt;br&gt;Indirizzo: VIA MARTIRI DEL GRAPPAN. 24, 31030 BORSO DEL GRAPPA (TREVISO)&lt;br&gt;Zona: 3207</description>
      <Point>
        <coordinates>11.7993161,45.8210248,0</coordinates>
      </Point>
    </Placemark>
    <Placemark>
      <name>41. SCUOLA PRIMARIA S. MARIA ASSUNTA</name>
      <description>&lt;b&gt;SCUOLA PRIMARIA S. MARIA ASSUNTA&lt;/b&gt;&lt;br&gt;Indirizzo: VIA PIVA 10, 31049 VALDOBBIADENE (TREVISO)&lt;br&gt;Zona: 3123</description>
      <Point>
        <coordinates>11.99638002114868,45.90164055489511,0</coordinates>
      </Point>
    </Placemark>
    <Placemark>
      <name>42. Sc.Elementare Paritaria Collegio Canova</name>
      <description>&lt;b&gt;Sc.Elementare Paritaria Collegio Canova&lt;/b&gt;&lt;br&gt;Indirizzo: Via Degli Impianti Sportivi 8, 31054 Possagno (TV)&lt;br&gt;Zona: 3207</description>
      <Point>
        <coordinates>11.8815695,45.854879,0</coordinates>
      </Point>
    </Placemark>
    <Placemark>
      <name>43. CD SANDRIGO -CAPOLUOGO</name>
      <description>&lt;b&gt;CD SANDRIGO -CAPOLUOGO&lt;/b&gt;&lt;br&gt;Indirizzo: VIA CHILESOTTI, 36066 SANDRIGO (VICENZA)&lt;br&gt;Zona: 3107</description>
      <Point>
        <coordinates>11.5933162,45.6599705,0</coordinates>
      </Point>
    </Placemark>
    <Placemark>
      <name>44. Scuola Primaia Tecchio</name>
      <description>&lt;b&gt;Scuola Primaia Tecchio&lt;/b&gt;&lt;br&gt;Indirizzo: Via Chiesa Lupia, 36066 Sandrigo (VI)&lt;br&gt;Zona: 3107</description>
      <Point>
        <coordinates>11.6092197,45.6409043,0</coordinates>
      </Point>
    </Placemark>
    <Placemark>
      <name>45. "BIANCHI BUGGIANI"</name>
      <description>&lt;b&gt;"BIANCHI BUGGIANI"&lt;/b&gt;&lt;br&gt;Indirizzo: VIA BUGGIANI2, 35043 MONSELICE (PADOVA)&lt;br&gt;Zona: 3106</description>
      <Point>
        <coordinates>11.7504738,45.2369022,0</coordinates>
      </Point>
    </Placemark>
    <Placemark>
      <name>46. "SACRO CUORE"</name>
      <description>&lt;b&gt;"SACRO CUORE"&lt;/b&gt;&lt;br&gt;Indirizzo: LARGO CARDINAL PALTANIERI 2, 35043 MONSELICE (PADOVA)&lt;br&gt;Zona: 3106</description>
      <Point>
        <coordinates>11.7504738,45.2369022,0</coordinates>
      </Point>
    </Placemark>
    <Placemark>
      <name>47. ANGELO MARCHESAN - RAMON</name>
      <description>&lt;b&gt;ANGELO MARCHESAN - RAMON&lt;/b&gt;&lt;br&gt;Indirizzo: VIA MARCHESAN 1, 31037 LORIA (TREVISO)&lt;br&gt;Zona: 3207</description>
      <Point>
        <coordinates>11.8652845,45.7139815,0</coordinates>
      </Point>
    </Placemark>
    <Placemark>
      <name>48. GIUSEPPINA BIANCO - CASTELLO G.</name>
      <description>&lt;b&gt;GIUSEPPINA BIANCO - CASTELLO G.&lt;/b&gt;&lt;br&gt;Indirizzo: VIA PAOLO PIAZZA 3, 31030 CASTELLO DI GODEGO (TREVISO)&lt;br&gt;Zona: 3207</description>
      <Point>
        <coordinates>11.8835511,45.6931681,0</coordinates>
      </Point>
    </Placemark>
    <Placemark>
      <name>49. ALFREDO TALIN</name>
      <description>&lt;b&gt;ALFREDO TALIN&lt;/b&gt;&lt;br&gt;Indirizzo: VIA MANTEGNA 2, 36016 THIENE (VICENZA)&lt;br&gt;Zona: 3107</description>
      <Point>
        <coordinates>11.4880853,45.7132944,0</coordinates>
      </Point>
    </Placemark>
    <Placemark>
      <name>50. SAN GIOVANNI BOSCO</name>
      <description>&lt;b&gt;SAN GIOVANNI BOSCO&lt;/b&gt;&lt;br&gt;Indirizzo: VIA ROZZAMPIA 73, 36016 THIENE (VICENZA)&lt;br&gt;Zona: 3107</description>
      <Point>
        <coordinates>11.50216658765572,45.67897968615078,0</coordinates>
      </Point>
    </Placemark>
    <Placemark>
      <name>51. "DON UMBERTO TRAME" LAMOSANO</name>
      <description>&lt;b&gt;"DON UMBERTO TRAME" LAMOSANO&lt;/b&gt;&lt;br&gt;Indirizzo: VIA TARCOGNA 116, 32010 CHIES D'ALPAGO (BELLUNO)&lt;br&gt;Zona: 3202</description>
      <Point>
        <coordinates>12.3886223,46.1762785,0</coordinates>
      </Point>
    </Placemark>
    <Placemark>
      <name>52. "LUDWIG VAN BEETHOVEN"</name>
      <description>&lt;b&gt;"LUDWIG VAN BEETHOVEN"&lt;/b&gt;&lt;br&gt;Indirizzo: VIA CATISANA 10, 32010 ALPAGO (BELLUNO)&lt;br&gt;Zona: 3202</description>
      <Point>
        <coordinates>12.3534014,46.1665795,0</coordinates>
      </Point>
    </Placemark>
    <Placemark>
      <name>53. BOVOLENTA-LOMBARDO RADICE</name>
      <description>&lt;b&gt;BOVOLENTA-LOMBARDO RADICE&lt;/b&gt;&lt;br&gt;Indirizzo: PIAZZA UMBERTO I°, 10, 35024 BOVOLENTA (PADOVA)&lt;br&gt;Zona: 3106</description>
      <Point>
        <coordinates>11.9385632,45.2699696,0</coordinates>
      </Point>
    </Placemark>
    <Placemark>
      <name>54. Primaria Boschetti Alberti Piove Di Sacco</name>
      <description>&lt;b&gt;Primaria Boschetti Alberti Piove Di Sacco&lt;/b&gt;&lt;br&gt;Indirizzo: Via Quattro Novembre, 17, 35028 Piove Di Sacco (PD)&lt;br&gt;Zona: 3106</description>
      <Point>
        <coordinates>12.0335436,45.2882858,0</coordinates>
      </Point>
    </Placemark>
    <Placemark>
      <name>55. Primaria Montessori Di Pontelongo C/O Scuola Secondaria Leopardi</name>
      <description>&lt;b&gt;Primaria Montessori Di Pontelongo C/O Scuola Secondaria Leopardi&lt;/b&gt;&lt;br&gt;Indirizzo: Vicolo Serravalle 4, 35029 Pontelongo (PD)&lt;br&gt;Zona: 3106</description>
      <Point>
        <coordinates>12.0187839,45.2510372,0</coordinates>
      </Point>
    </Placemark>
    <Placemark>
      <name>56. Primaria Dante Alighieri Di Piove Di Sacco</name>
      <description>&lt;b&gt;Primaria Dante Alighieri Di Piove Di Sacco&lt;/b&gt;&lt;br&gt;Indirizzo: Via Petrarca 39, 35028 Piove Di Sacco (PD)&lt;br&gt;Zona: 3106</description>
      <Point>
        <coordinates>12.0323984,45.3063529,0</coordinates>
      </Point>
    </Placemark>
    <Placemark>
      <name>57. VIA BARCO - ALTIVOLE CAP.</name>
      <description>&lt;b&gt;VIA BARCO - ALTIVOLE CAP.&lt;/b&gt;&lt;br&gt;Indirizzo: VIA BARCO 22, 31030 ALTIVOLE (TREVISO)&lt;br&gt;Zona: 3207</description>
      <Point>
        <coordinates>11.9560703,45.7554893,0</coordinates>
      </Point>
    </Placemark>
    <Placemark>
      <name>58. GIOVANNI XXIII - CASELLE</name>
      <description>&lt;b&gt;GIOVANNI XXIII - CASELLE&lt;/b&gt;&lt;br&gt;Indirizzo: VIA J. KENNEDY 1/1, 31030 ALTIVOLE (TREVISO)&lt;br&gt;Zona: 3207</description>
      <Point>
        <coordinates>11.975021,45.7464156,0</coordinates>
      </Point>
    </Placemark>
    <Placemark>
      <name>59. S. PIO X - SAN VITO</name>
      <description>&lt;b&gt;S. PIO X - SAN VITO&lt;/b&gt;&lt;br&gt;Indirizzo: PIAZZA SAN VITO 6, 31030 ALTIVOLE (TREVISO)&lt;br&gt;Zona: 3207</description>
      <Point>
        <coordinates>11.9117124,45.7558039,0</coordinates>
      </Point>
    </Placemark>
    <Placemark>
      <name>60. MONTEGRAPPA - TEZZE SUL BRENTA</name>
      <description>&lt;b&gt;MONTEGRAPPA - TEZZE SUL BRENTA&lt;/b&gt;&lt;br&gt;Indirizzo: VIA DON ANTONIO BELLUZZO 7, 36056 TEZZE SUL BRENTA (VICENZA)&lt;br&gt;Zona: 3107</description>
      <Point>
        <coordinates>11.70689713301135,45.68741616689596,0</coordinates>
      </Point>
    </Placemark>
    <Placemark>
      <name>61. GABRIELE D'ANNUNZIO</name>
      <description>&lt;b&gt;GABRIELE D'ANNUNZIO&lt;/b&gt;&lt;br&gt;Indirizzo: VIA CIVRAN 3, 30010 CONA (VENEZIA)&lt;br&gt;Zona: 3106</description>
      <Point>
        <coordinates>12.110388,45.156383,0</coordinates>
      </Point>
    </Placemark>
    <Placemark>
      <name>62. DANTE ALIGHIERI</name>
      <description>&lt;b&gt;DANTE ALIGHIERI&lt;/b&gt;&lt;br&gt;Indirizzo: VIA DANTE ALIGHIERI 11, 30014 CAVARZERE (VENEZIA)&lt;br&gt;Zona: 3106</description>
      <Point>
        <coordinates>11.76019113737587,45.79500985684592,0</coordinates>
      </Point>
    </Placemark>
    <Placemark>
      <name>63. Maddalena Laura Lombardini</name>
      <description>&lt;b&gt;Maddalena Laura Lombardini&lt;/b&gt;&lt;br&gt;Indirizzo: Via Dante Alighieri, 11, 30014 Cavarzere (VE)&lt;br&gt;Zona: 3106</description>
      <Point>
        <coordinates>12.0903118,45.134605,0</coordinates>
      </Point>
    </Placemark>
    <Placemark>
      <name>64. SCUOLA PRIMARIA "L. DA VINCI"</name>
      <description>&lt;b&gt;SCUOLA PRIMARIA "L. DA VINCI"&lt;/b&gt;&lt;br&gt;Indirizzo: VIA VITTORIO EMANUELE II 26, 35026 CONSELVE (PADOVA)&lt;br&gt;Zona: 3106</description>
      <Point>
        <coordinates>11.8703154,45.2337126,0</coordinates>
      </Point>
    </Placemark>
    <Placemark>
      <name>65. SCUOLA PRIMARIA "I. NIEVO"</name>
      <description>&lt;b&gt;SCUOLA PRIMARIA "I. NIEVO"&lt;/b&gt;&lt;br&gt;Indirizzo: VIA MADONNA 3, 35020 TERRASSA PADOVANA (PADOVA)&lt;br&gt;Zona: 3106</description>
      <Point>
        <coordinates>11.9070145,45.2466007,0</coordinates>
      </Point>
    </Placemark>
    <Placemark>
      <name>66. SCUOLA PRIMARIA "E. DE AMICIS"</name>
      <description>&lt;b&gt;SCUOLA PRIMARIA "E. DE AMICIS"&lt;/b&gt;&lt;br&gt;Indirizzo: VIA ROMA 103, 35020 ARRE (PADOVA)&lt;br&gt;Zona: 3106</description>
      <Point>
        <coordinates>11.9323501,45.2162494,0</coordinates>
      </Point>
    </Placemark>
    <Placemark>
      <name>67. FOEN</name>
      <description>&lt;b&gt;FOEN&lt;/b&gt;&lt;br&gt;Indirizzo: VIA VALLINA 1, 32032 FELTRE (BELLUNO)&lt;br&gt;Zona: 3123</description>
      <Point>
        <coordinates>11.9001202,46.0417192,0</coordinates>
      </Point>
    </Placemark>
    <Placemark>
      <name>68. SCUOLA PRIMARIA CORLETTO</name>
      <description>&lt;b&gt;SCUOLA PRIMARIA CORLETTO&lt;/b&gt;&lt;br&gt;Indirizzo: VIA PRIULI 72, 31033 CASTELFRANCO VENETO (TREVISO)&lt;br&gt;Zona: 3207</description>
      <Point>
        <coordinates>11.8972368,45.6489197,0</coordinates>
      </Point>
    </Placemark>
    <Placemark>
      <name>69. Zona Ovest Masaccio</name>
      <description>&lt;b&gt;Zona Ovest Masaccio&lt;/b&gt;&lt;br&gt;Indirizzo: Via Monfenera 23, 31033 Castelfranco Veneto (TV)&lt;br&gt;Zona: 3207</description>
      <Point>
        <coordinates>11.9188857,45.674323,0</coordinates>
      </Point>
    </Placemark>
    <Placemark>
      <name>70. "VITTORINO DA FELTRE" FELTRE</name>
      <description>&lt;b&gt;"VITTORINO DA FELTRE" FELTRE&lt;/b&gt;&lt;br&gt;Indirizzo: VIA C. CASTALDI 4, 32032 FELTRE (BELLUNO)&lt;br&gt;Zona: 3123</description>
      <Point>
        <coordinates>11.9105004,46.0155604,0</coordinates>
      </Point>
    </Placemark>
    <Placemark>
      <name>71. MUGNAI</name>
      <description>&lt;b&gt;MUGNAI&lt;/b&gt;&lt;br&gt;Indirizzo: VIA SCUOLE 53, 32032 FELTRE (BELLUNO)&lt;br&gt;Zona: 3123</description>
      <Point>
        <coordinates>11.8691557,46.0152726,0</coordinates>
      </Point>
    </Placemark>
    <Placemark>
      <name>72. "BRUSTOLON" BADILET</name>
      <description>&lt;b&gt;"BRUSTOLON" BADILET&lt;/b&gt;&lt;br&gt;Indirizzo: VIA CIRVOI N. 11/A, 32100 BELLUNO (BELLUNO)&lt;br&gt;Zona: 4113</description>
      <Point>
        <coordinates>12.2387756,46.1069811,0</coordinates>
      </Point>
    </Placemark>
    <Placemark>
      <name>73. SCUOLA PRIMARIA G. ZANELLA</name>
      <description>&lt;b&gt;SCUOLA PRIMARIA G. ZANELLA&lt;/b&gt;&lt;br&gt;Indirizzo: VIA ROSSINI 2/4, 36010 MONTICELLO CONTE OTTO (VICENZA)&lt;br&gt;Zona: 4120</description>
      <Point>
        <coordinates>11.5708813,45.6037003,0</coordinates>
      </Point>
    </Placemark>
    <Placemark>
      <name>74. GIACOMO ZANELLA - CASTIONE</name>
      <description>&lt;b&gt;GIACOMO ZANELLA - CASTIONE&lt;/b&gt;&lt;br&gt;Indirizzo: VIA CASTIGLIONE, 7, 31037 LORIA (TREVISO)&lt;br&gt;Zona: 4118</description>
      <Point>
        <coordinates>11.91160116677398,45.7922286660117,0</coordinates>
      </Point>
    </Placemark>
    <Placemark>
      <name>75. GIOVANNI XXIII - BESSICA</name>
      <description>&lt;b&gt;GIOVANNI XXIII - BESSICA&lt;/b&gt;&lt;br&gt;Indirizzo: VIA DANTE ALIGHIERI, 46, 31037 LORIA (TREVISO)&lt;br&gt;Zona: 4118</description>
      <Point>
        <coordinates>11.8391598,45.7362559,0</coordinates>
      </Point>
    </Placemark>
    <Placemark>
      <name>76. Arsie</name>
      <description>&lt;b&gt;Arsie&lt;/b&gt;&lt;br&gt;Indirizzo: Piazza Marconi 1, 32030 Arsie (BL)&lt;br&gt;Zona: 4123</description>
      <Point>
        <coordinates>11.75812,45.9835806,0</coordinates>
      </Point>
    </Placemark>
    <Placemark>
      <name>77. A. CANOVA</name>
      <description>&lt;b&gt;A. CANOVA&lt;/b&gt;&lt;br&gt;Indirizzo: VIA S. CROCE, 36061 BASSANO DEL GRAPPA (VICENZA)&lt;br&gt;Zona: 4120</description>
      <Point>
        <coordinates>11.7336855,45.755753,0</coordinates>
      </Point>
    </Placemark>
    <Placemark>
      <name>78. DE AMICIS</name>
      <description>&lt;b&gt;DE AMICIS&lt;/b&gt;&lt;br&gt;Indirizzo: STRADA ST.PASUBIO 50, 36030 COSTABISSARA (VICENZA)&lt;br&gt;Zona: 4120</description>
      <Point>
        <coordinates>11.4956954336298,45.5998845598298,0</coordinates>
      </Point>
    </Placemark>
    <Placemark>
      <name>79. SC. ELEM. "A.RECH" PEDAVENA</name>
      <description>&lt;b&gt;SC. ELEM. "A.RECH" PEDAVENA&lt;/b&gt;&lt;br&gt;Indirizzo: VIA U. FOSCOLO 1, 32034 PEDAVENA (BELLUNO)&lt;br&gt;Zona: 4123</description>
      <Point>
        <coordinates>11.8763582167109,46.0392158388291,0</coordinates>
      </Point>
    </Placemark>
    <Placemark>
      <name>80. ROSA' E. MARANGONI</name>
      <description>&lt;b&gt;ROSA' E. MARANGONI&lt;/b&gt;&lt;br&gt;Indirizzo: VIA CONCORDIA 3, 36027 ROSA' (VICENZA)&lt;br&gt;Zona: 4107</description>
      <Point>
        <coordinates>11.7295282,45.7309724,0</coordinates>
      </Point>
    </Placemark>
    <Placemark>
      <name>81. S.D. Savio</name>
      <description>&lt;b&gt;S.D. Savio&lt;/b&gt;&lt;br&gt;Indirizzo: Via S. Teresa 5, 36060 Schiavon (VI)&lt;br&gt;Zona: 4107</description>
      <Point>
        <coordinates>11.6448404,45.6925971,0</coordinates>
      </Point>
    </Placemark>
    <Placemark>
      <name>82. Primaria E.Toti Correzzola</name>
      <description>&lt;b&gt;Primaria E.Toti Correzzola&lt;/b&gt;&lt;br&gt;Indirizzo: Viale Melzi 11, 35020 Correzzola (PD)&lt;br&gt;Zona: 4106</description>
      <Point>
        <coordinates>12.0663963,45.2360702,0</coordinates>
      </Point>
    </Placemark>
    <Placemark>
      <name>83. "MARGHERITA RUSCONI" SEREN D.G.</name>
      <description>&lt;b&gt;"MARGHERITA RUSCONI" SEREN D.G.&lt;/b&gt;&lt;br&gt;Indirizzo: VIA G. MARCONI 26, 32030 SEREN DEL GRAPPA (BELLUNO)&lt;br&gt;Zona: 4123</description>
      <Point>
        <coordinates>11.840620078698,45.989930888098,0</coordinates>
      </Point>
    </Placemark>
    <Placemark>
      <name>84. MONTECCHIO PREC. - CAP.</name>
      <description>&lt;b&gt;MONTECCHIO PREC. - CAP.&lt;/b&gt;&lt;br&gt;Indirizzo: VIA MAGANZA 19, 36030 MONTECCHIO PRECALCINO (VICENZA)&lt;br&gt;Zona: 4120</description>
      <Point>
        <coordinates>11.5578313,45.6741134,0</coordinates>
      </Point>
    </Placemark>
    <Placemark>
      <name>85. MONSIGNOR BERNARDI - POGGIANA</name>
      <description>&lt;b&gt;MONSIGNOR BERNARDI - POGGIANA&lt;/b&gt;&lt;br&gt;Indirizzo: VIA BRIGATA MARTIRI DEL GRAPPA 5, 31039 RIESE PIO X (TREVISO)&lt;br&gt;Zona: 4118</description>
      <Point>
        <coordinates>11.8826846,45.7292228,0</coordinates>
      </Point>
    </Placemark>
    <Placemark>
      <name>86. Dante Alighieri - Mel</name>
      <description>&lt;b&gt;Dante Alighieri - Mel&lt;/b&gt;&lt;br&gt;Indirizzo: Via D. R. Zannoni, 37, 32026 Borgo Valbelluna (BL)&lt;br&gt;Zona: 4113</description>
      <Point>
        <coordinates>12.1062758,46.0265703,0</coordinates>
      </Point>
    </Placemark>
    <Placemark>
      <name>87. Scuola Primaria Le Risorgive</name>
      <description>&lt;b&gt;Scuola Primaria Le Risorgive&lt;/b&gt;&lt;br&gt;Indirizzo: Piazza Iv Novembre 4, 36050 Bressanvido (VI)&lt;br&gt;Zona: 4120</description>
      <Point>
        <coordinates>11.628092,45.6341966,0</coordinates>
      </Point>
    </Placemark>
    <Placemark>
      <name>88. Dante Alighieri Fara Vic.No Fraz.S.Giorgio</name>
      <description>&lt;b&gt;Dante Alighieri Fara Vic.No Fraz.S.Giorgio&lt;/b&gt;&lt;br&gt;Indirizzo: Via Perlena 76, 36030 Fara Vicentino (VI)&lt;br&gt;Zona: 4120</description>
      <Point>
        <coordinates>11.5836439,45.7270533,0</coordinates>
      </Point>
    </Placemark>
    <Placemark>
      <name>89. Fraz. Oltrerai</name>
      <description>&lt;b&gt;Fraz. Oltrerai&lt;/b&gt;&lt;br&gt;Indirizzo: Via I Novembre,1 -Paiane, 32014 Ponte Nelle Alpi (BL)&lt;br&gt;Zona: 4113</description>
      <Point>
        <coordinates>12.3105973,46.1752179,0</coordinates>
      </Point>
    </Placemark>
    <Placemark>
      <name>90. Pasini</name>
      <description>&lt;b&gt;Pasini&lt;/b&gt;&lt;br&gt;Indirizzo: Via Ospedaletto-S.S.53 Postumia, 165, 36100 Vicenza (VI)&lt;br&gt;Zona: 4120</description>
      <Point>
        <coordinates>11.5495137,45.548855,0</coordinates>
      </Point>
    </Placemark>
    <Placemark>
      <name>91. IC VICENZA 6-7 - DE AMICIS</name>
      <description>&lt;b&gt;IC VICENZA 6-7 - DE AMICIS&lt;/b&gt;&lt;br&gt;Indirizzo: VIALE FIUME 97, 36100 VICENZA (VICENZA)&lt;br&gt;Zona: 4107</description>
      <Point>
        <coordinates>11.5602111,45.5643524,0</coordinates>
      </Point>
    </Placemark>
    <Placemark>
      <name>92. Scuola Elementare Santa Giustina</name>
      <description>&lt;b&gt;Scuola Elementare Santa Giustina&lt;/b&gt;&lt;br&gt;Indirizzo: Via Cal De Formiga 29, 32035 Santa Giustina (BL)&lt;br&gt;Zona: 4123</description>
      <Point>
        <coordinates>12.0373294,46.0818587,0</coordinates>
      </Point>
    </Placemark>
    <Placemark>
      <name>93. Fraz. Meano</name>
      <description>&lt;b&gt;Fraz. Meano&lt;/b&gt;&lt;br&gt;Indirizzo: Piazza Alvisi 17, 32035 Santa Giustina (BL)&lt;br&gt;Zona: 4123</description>
      <Point>
        <coordinates>12.0661448,46.1021459,0</coordinates>
      </Point>
    </Placemark>
    <Placemark>
      <name>94. SAN GREGORIO NELLE ALPI</name>
      <description>&lt;b&gt;SAN GREGORIO NELLE ALPI&lt;/b&gt;&lt;br&gt;Indirizzo: VIA MONTE PIZZOCCO 2, 32030 SAN GREGORIO NELLE ALPI (BELLUNO)&lt;br&gt;Zona: 4113</description>
      <Point>
        <coordinates>12.026965,46.1042624,0</coordinates>
      </Point>
    </Placemark>
    <Placemark>
      <name>95. "ROMANO OCRI" CESIOM.-SORANZEN</name>
      <description>&lt;b&gt;"ROMANO OCRI" CESIOM.-SORANZEN&lt;/b&gt;&lt;br&gt;Indirizzo: VIA SCUOLE 14, 32030 CESIOMAGGIORE (BELLUNO)&lt;br&gt;Zona: 4113</description>
      <Point>
        <coordinates>11.9461291,46.0735862,0</coordinates>
      </Point>
    </Placemark>
    <Placemark>
      <name>96. Ic Breganze - Maragnole</name>
      <description>&lt;b&gt;Ic Breganze - Maragnole&lt;/b&gt;&lt;br&gt;Indirizzo: Piazza Mons. Faresin 15, 36042 Breganze (VI)&lt;br&gt;Zona: 4120</description>
      <Point>
        <coordinates>11.5703868,45.7035986,0</coordinates>
      </Point>
    </Placemark>
    <Placemark>
      <name>97. F.Lli Stramare - Pederobba Cap.</name>
      <description>&lt;b&gt;F.Lli Stramare - Pederobba Cap.&lt;/b&gt;&lt;br&gt;Indirizzo: Via Roma 102, 31040 Pederobba (TV)&lt;br&gt;Zona: 4123</description>
      <Point>
        <coordinates>11.951834,45.877235,0</coordinates>
      </Point>
    </Placemark>
    <Placemark>
      <name>98. Primaria Montessori Di Pontelongo</name>
      <description>&lt;b&gt;Primaria Montessori Di Pontelongo&lt;/b&gt;&lt;br&gt;Indirizzo: Largo Cavalieri V. Veneto 13, 35029 Pontelongo (PD)&lt;br&gt;Zona: 4106</description>
      <Point>
        <coordinates>12.0239373,45.2469955,0</coordinates>
      </Point>
    </Placemark>
    <Placemark>
      <name>99. Don Talamini- Selva Di Cadore</name>
      <description>&lt;b&gt;Don Talamini- Selva Di Cadore&lt;/b&gt;&lt;br&gt;Indirizzo: Via Dei Denever, 21 - S.Fosca&lt;br&gt;Zona: DDT_DA_INSERIRE</description>
      <Point>
        <coordinates>12.0611814,46.4445552,0</coordinates>
      </Point>
    </Placemark>
    <Placemark>
      <name>100. Fraz. Villapiccola</name>
      <description>&lt;b&gt;Fraz. Villapiccola&lt;/b&gt;&lt;br&gt;Indirizzo: Via Piave, 2&lt;br&gt;Zona: DDT_DA_INSERIRE</description>
      <Point>
        <coordinates>12.454517,46.546452,0</coordinates>
      </Point>
    </Placemark>
    <Placemark>
      <name>101. "A. MANZONI" LOC. PALUGANA</name>
      <description>&lt;b&gt;"A. MANZONI" LOC. PALUGANA&lt;/b&gt;&lt;br&gt;Indirizzo: VIA PALUGANA SUD 36&lt;br&gt;Zona: DDT_DA_INSERIRE</description>
      <Point>
        <coordinates>11.6017154,45.2235676,0</coordinates>
      </Point>
    </Placemark>
  </Document>
</kml>